"location_id","name","latitude","longitude"
1,London,51.5074,-0.1278
2,Manchester,53.4808,-2.2426
3,Birmingham,52.4862,-1.8904
4,Leeds,53.8008,-1.5491
5,Bristol,51.4545,-2.5879
6,Liverpool,53.4084,-2.9916
7,Nottingham,52.9548,-1.1581
8,Sheffield,53.3811,-1.4701
9,Southampton,50.9097,-1.4043
10,Newcastle,54.9783,-1.6178
